City,Lat,Lng,Max Temp,Humidity,Cloudiness,Wind Speed,Country,Date
hoi an,15.8794,108.335,94.96,59.0,100,12.21,VN,1628046480
ubinskoye,55.3068,79.6802,61.97,79.0,96,4.43,RU,1628046480
paamiut,61.994,-49.6678,45.23,95.0,100,5.17,GL,1628046481
norman wells,65.282,-126.8329,55.27,76.0,100,2.33,CA,1628046481
punta arenas,-53.15,-70.9167,42.12,75.0,90,9.22,CL,1628046482
kapaa,22.0752,-159.319,84.18,77.0,75,5.01,US,1628046482
hokitika,-42.7167,170.9667,50.76,64.0,84,6.55,NZ,1628046482
honiara,-9.4333,159.95,81.27,81.0,58,5.14,SB,1628046483
albany,42.6001,-73.9662,63.55,85.0,100,2.62,US,1628046257
boca do acre,-8.7522,-67.3978,71.1,50.0,0,1.7,BR,1628046483
rikitea,-23.1203,-134.9692,70.16,62.0,64,14.14,PF,1628046361
walvis bay,-22.9575,14.5053,60.1,88.0,0,6.53,NA,1628046484
ushuaia,-54.8,-68.3,40.66,70.0,75,5.75,AR,1628046355
sola,-13.8833,167.55,77.52,72.0,59,16.67,VU,1628046485
tezu,27.9167,96.1667,90.14,59.0,41,3.18,IN,1628046485
dikson,73.5069,80.5464,45.54,87.0,100,9.57,RU,1628046281
vaini,-21.2,-175.2,73.56,78.0,40,12.66,TO,1628046486
hermanus,-34.4187,19.2345,50.9,88.0,34,5.3,ZA,1628046269
mar del plata,-38.0023,-57.5575,54.12,53.0,75,1.99,AR,1628046253
north bend,43.4065,-124.2243,62.92,94.0,75,16.11,US,1628046190
yellowknife,62.456,-114.3525,62.56,42.0,98,3,CA,1628046486
victoria,22.2855,114.1577,90.97,77.0,80,1.99,HK,1628046484
corinth,37.9407,22.9573,90.68,32.0,0,3.42,GR,1628046487
nikolo-pavlovskoye,57.7831,60.0578,69.24,86.0,57,2.93,RU,1628046487
saint-francois,46.4154,3.9054,57.67,99.0,90,1.14,FR,1628046488
yumen,40.2833,97.2,82.17,11.0,67,15.28,CN,1628046488
torbay,47.6666,-52.7314,61.68,85.0,67,5.01,CA,1628046199
new norfolk,-42.7826,147.0587,56.7,57.0,79,4,AU,1628046489
pisco,-13.7,-76.2167,62.65,82.0,90,3.44,PE,1628046304
muncar,-8.4333,114.3333,80.24,82.0,45,8.77,ID,1628046490
tuktoyaktuk,69.4541,-133.0374,46.76,68.0,10,11.92,CA,1628046422
alice springs,-23.7,133.8833,60.35,33.0,0,14.97,AU,1628046490
qaanaaq,77.484,-69.3632,42.4,95.0,100,1.79,GL,1628046359
seoni malwa,22.45,77.4667,73.76,94.0,100,14.56,IN,1628046491
holland,42.7875,-86.1089,67.44,68.0,1,0,US,1628046492
provideniya,64.3833,-173.3,51.91,82.0,90,8.95,RU,1628046492
okhotsk,59.3833,143.3,63.68,58.0,25,9.48,RU,1628046493
miri,4.4148,114.0089,85.96,64.0,80,5.97,MY,1628046493
chicama,-7.8447,-79.1469,66.43,79.0,2,6.42,PE,1628046493
kyabe,9.4515,18.9449,68.63,98.0,88,2.89,TD,1628046494
mahebourg,-20.4081,57.7,65.25,73.0,10,11.3,MU,1628046494
muli,2.9167,73.5667,82.22,72.0,100,4.61,MV,1628046494
ziro,27.6333,93.8333,72.79,64.0,97,0.78,IN,1628046495
cap malheureux,-19.9842,57.6142,65.46,75.0,5,1.99,MU,1628046495
kawerau,-38.1,176.7,59.67,36.0,16,4.83,NZ,1628046496
ilulissat,69.2167,-51.1,42.82,87.0,44,0,GL,1628046496
nikolskoye,59.7035,30.7861,53.02,94.0,13,5.41,RU,1628046370
lebu,-37.6167,-73.65,50.49,90.0,6,5.53,CL,1628046497
guerrero negro,27.9769,-114.0611,74.03,76.0,4,14.07,MX,1628046338
hobart,-42.8794,147.3294,57.06,50.0,40,4,AU,1628046494
bethel,41.3712,-73.414,66.81,84.0,1,0,US,1628046388
busselton,-33.65,115.3333,57.04,66.0,61,1.74,AU,1628046498
hithadhoo,-0.6,73.0833,81.82,75.0,100,7.9,MV,1628046336
kaitangata,-46.2817,169.8464,50.94,57.0,87,8.81,NZ,1628046296
kitimat,54.0524,-128.6534,62.98,95.0,100,0.45,CA,1628046498
phalombe,-15.8064,35.6507,52.48,83.0,0,2.95,MW,1628046499
klaksvik,62.2266,-6.589,50.92,88.0,100,5.53,FO,1628046260
fuyu,45.1833,124.8167,71.89,86.0,100,12.88,CN,1628046315
cape town,-33.9258,18.4232,57.11,85.0,52,1.99,ZA,1628046378
cabo san lucas,22.8909,-109.9124,86.61,77.0,73,7,MX,1628046402
port hardy,50.6996,-127.4199,65.03,83.0,86,8.77,CA,1628046500
jacareacanga,-6.2222,-57.7528,76.28,48.0,49,0.58,BR,1628046500
vanavara,60.34,102.2797,76.96,43.0,30,4.36,RU,1628046500
saldanha,-33.0117,17.9442,55,87.0,39,7.11,ZA,1628046501
jamestown,42.097,-79.2353,64.04,76.0,1,2.51,US,1628046213
port blair,11.6667,92.75,82.44,83.0,75,10.36,IN,1628046502
sierra vista,31.5545,-110.3037,84.67,45.0,1,9.22,US,1628046502
conceicao do araguaia,-8.2578,-49.2647,70.41,40.0,5,3.27,BR,1628046503
cherskiy,68.75,161.3,41.94,86.0,100,8.05,RU,1628046374
mataura,-46.1927,168.8643,46.47,65.0,100,4.25,NZ,1628046503
kahului,20.8947,-156.47,83.46,79.0,40,27.63,US,1628046481
portland,45.5234,-122.6762,86.45,42.0,0,1.01,US,1628045714
chuy,-33.6971,-53.4616,47.64,93.0,13,2.51,UY,1628046414
mount gambier,-37.8333,140.7667,54.39,85.0,71,13.04,AU,1628046505
puerto ayora,-0.7393,-90.3518,69.06,83.0,35,6.8,EC,1628046505
upernavik,72.7868,-56.1549,40.62,89.0,19,10.38,GL,1628046505
ribeira grande,38.5167,-28.7,72.01,88.0,2,4.79,PT,1628046306
atuona,-9.8,-139.0333,77.58,73.0,69,15.5,PF,1628046506
sitka,57.0531,-135.33,64.29,63.0,90,6.91,US,1628046433
sedro-woolley,48.5039,-122.2361,75.94,59.0,1,6.91,US,1628046506
axim,4.8699,-2.2405,75.74,91.0,97,6.96,GH,1628046320
severo-kurilsk,50.6789,156.125,54.07,69.0,100,18.54,RU,1628046265
emerald,-23.5333,148.1667,69.35,26.0,25,8.16,AU,1628046461
arraial do cabo,-22.9661,-42.0278,67.6,74.0,43,11.95,BR,1628046320
znamenskoye,57.1281,73.8282,62.92,83.0,55,7.34,RU,1628046507
anloga,5.7947,0.8973,76.48,90.0,100,14.56,GH,1628046508
kasongo-lunda,-6.4667,16.8167,65.77,34.0,3,0.38,CD,1628046508
ola,59.5833,151.2833,60.51,49.0,57,4.74,RU,1628046509
tirumullaivasal,11.2333,79.8333,85.96,59.0,100,10.16,IN,1628046509
terrace,54.5163,-128.6035,62.51,100.0,90,3.44,CA,1628046348
lompoc,34.6391,-120.4579,68.11,84.0,90,8.05,US,1628046415
turtas,58.9417,69.1325,65.62,71.0,0,4.07,RU,1628046510
barrow,71.2906,-156.7887,50.02,65.0,20,16.11,US,1628046510
hinton,53.4001,-117.5857,78.1,48.0,95,0.51,CA,1628046510
airai,-8.9266,125.4092,75.31,41.0,100,4.92,TL,1628046286
bluff,-46.6,168.3333,46.8,62.0,100,4.45,NZ,1628046511
dilla,6.41,38.31,60.98,88.0,76,3.49,ET,1628046511
kodiak,57.79,-152.4072,56.71,82.0,90,8.05,US,1628046512
hilo,19.7297,-155.09,78.53,82.0,90,9.22,US,1628046310
flinders,-34.5833,150.8552,61.05,50.0,18,11.99,AU,1628046512
badou,7.5833,0.6,71.74,92.0,96,1.1,TG,1628046512
bredasdorp,-34.5322,20.0403,50.29,95.0,36,2.59,ZA,1628046358
padang,-0.9492,100.3543,83.05,74.0,42,3,ID,1628046450
zadonsk,52.3904,38.9261,60.94,66.0,80,5.95,RU,1628046513
iqaluit,63.7506,-68.5145,43.7,87.0,99,15.01,CA,1628046514
fukue,32.6881,128.8419,83.3,73.0,41,8.9,JP,1628046514
port alfred,-33.5906,26.891,61.93,45.0,0,12.08,ZA,1628046256
half moon bay,37.4636,-122.4286,77.32,81.0,20,1.01,US,1628046443
saskylakh,71.9167,114.0833,67.59,32.0,42,13,RU,1628046515
ayagoz,47.9714,80.4392,74.05,42.0,70,13.82,KZ,1628046515
ponta do sol,32.6667,-17.1,71.01,79.0,12,5.26,PT,1628046396
aklavik,68.2191,-135.0107,62.29,36.0,0,5.23,CA,1628046426
avarua,-21.2078,-159.775,77.05,69.0,1,10.36,CK,1628046311
urumqi,43.801,87.6005,85.15,19.0,0,4.47,CN,1628046516
ust-maya,60.4167,134.5333,75.15,36.0,51,4.61,RU,1628046517
sabang,5.8933,95.3214,83.21,72.0,100,21.61,ID,1628046517
nanortalik,60.1432,-45.2371,44.19,97.0,100,4.59,GL,1628046517
port elizabeth,-33.918,25.5701,52.11,84.0,0,11.18,ZA,1628046518
meulaboh,4.1363,96.1285,81.55,75.0,98,3.83,ID,1628046518
tecoanapa,16.5167,-98.75,82.56,79.0,100,6.96,MX,1628046519
bambous virieux,-20.3428,57.7575,65.21,73.0,10,11.23,MU,1628046519
teknaf,20.8624,92.3058,82.08,82.0,85,14.29,BD,1628046520
mattru,7.6244,-11.8332,71.58,90.0,93,1.7,SL,1628046520
husavik,66.0449,-17.3389,51.58,83.0,96,0.85,IS,1628046491
sindor,62.8629,51.8905,63.36,98.0,85,2.73,RU,1628046521
yeppoon,-23.1333,150.7333,73.18,33.0,45,7.27,AU,1628046266
castro,-24.7911,-50.0119,43.18,94.0,36,4.72,BR,1628046521
butaritari,3.0707,172.7902,83.44,69.0,78,12.62,KI,1628046522
santiago del estero,-27.7951,-64.2615,52.81,39.0,45,7.34,AR,1628046523
mattawa,46.7379,-119.9028,94.64,40.0,3,9.4,US,1628046523
san quintin,30.4833,-115.95,70.74,77.0,2,14.34,MX,1628046279
pangnirtung,66.1451,-65.7125,49.82,78.0,88,3.2,CA,1628046525
esperance,-33.8667,121.9,57.04,71.0,91,4.88,AU,1628046526
mount vernon,40.9126,-73.8371,71.89,70.0,1,3.44,US,1628046526
komsomolskiy,40.4272,71.7189,83.12,32.0,1,4.61,UZ,1628046291
yulara,-25.2406,130.9889,60.64,33.0,0,12.66,AU,1628046527
lagoa,39.05,-27.9833,71.11,91.0,5,8.61,PT,1628046279
san borja,-14.8167,-66.85,66.36,55.0,86,4.18,BO,1628046527
saint-philippe,-21.3585,55.7679,65.79,86.0,97,18.16,RE,1628046305
turukhansk,65.8167,87.9833,71.92,57.0,8,8.99,RU,1628046503
boende,-0.2167,20.8667,76.21,48.0,96,1.12,CD,1628046528
coquimbo,-29.9533,-71.3436,53.33,87.0,90,0,CL,1628046377
forbes,-33.3833,148.0167,49.91,80.0,99,14.03,AU,1628046529
nioaque,-21.1353,-55.83,62.38,32.0,90,5.01,BR,1628046530
ostrovnoy,68.0531,39.5131,55.74,86.0,51,16.69,RU,1628046530
kieta,-6.2167,155.6333,83.43,76.0,34,6.26,PG,1628046531
arawa,-6.2132,155.5367,84.09,77.0,49,3.76,PG,1628046531
coolum beach,-26.5333,153.1,69.12,42.0,0,13,AU,1628046532
kismayo,-0.3582,42.5454,75.51,82.0,53,14.03,SO,1628046532
jieshi,22.8134,115.8257,86.95,77.0,91,16.64,CN,1628046533
kruszwica,52.6756,18.3313,58.32,79.0,96,3.04,PL,1628046533
las rosas,-32.4766,-61.5804,45.75,57.0,98,5.86,AR,1628046533
manokwari,-0.8667,134.0833,82.24,73.0,100,8.08,ID,1628046534
keti bandar,24.1447,67.4497,81.99,77.0,100,22.64,PK,1628046534
bardiyah,31.7561,25.0865,80.89,74.0,0,12.8,LY,1628046534
tiksi,71.6872,128.8694,45.07,72.0,76,10.36,RU,1628046535
bathsheba,13.2167,-59.5167,81.21,78.0,40,11.5,BB,1628046382
tual,-5.6667,132.75,80.76,73.0,97,18.59,ID,1628046535
itaituba,-4.2761,-55.9836,78.24,64.0,100,0.63,BR,1628046536
shache,38.4167,77.2406,80.04,30.0,100,4.03,CN,1628046536
birjand,32.8663,59.2211,76.12,17.0,1,14.27,IR,1628046317
san juan de la maguana,18.8059,-71.2299,75.07,93.0,96,2.53,DO,1628046537
viedma,-40.8135,-62.9967,47.66,74.0,43,8.43,AR,1628046431
sisimiut,66.9395,-53.6735,47.66,89.0,54,4.38,GL,1628046386
ankpa,7.3706,7.6253,70.09,97.0,96,4.5,NG,1628046538
inyonga,-6.7167,32.0667,60.71,63.0,2,4.18,TZ,1628046538
esik,43.3552,77.4525,80.02,24.0,0,5.5,KZ,1628046538
emba,48.8264,58.1442,88.48,17.0,6,2.98,KZ,1628046539
maniitsoq,65.4167,-52.9,43.7,93.0,92,9.1,GL,1628046539
bengkulu,-3.8004,102.2655,81.95,74.0,100,5.32,ID,1628046256
belaya gora,68.5333,146.4167,62.28,28.0,11,11.7,RU,1628046540
progreso,21.2833,-89.6667,77.11,76.0,18,13.15,MX,1628046540
otane,-39.8833,176.6333,53.38,47.0,3,9.48,NZ,1628046540
virginia beach,36.8529,-75.978,73.45,86.0,90,5.75,US,1628046384
ponta delgada,37.7333,-25.6667,72.32,83.0,40,6.91,PT,1628046541
college,64.8569,-147.8028,85.98,45.0,40,13.8,US,1628046541
fairbanks,64.8378,-147.7164,86,44.0,1,1.01,US,1628046506
east london,-33.0153,27.9116,67.32,25.0,0,10.09,ZA,1628046265
drumheller,51.4617,-112.7101,76.5,40.0,34,3.65,CA,1628046543
nyurba,63.2842,118.3319,79.61,35.0,73,13.11,RU,1628046543
hervey bay,-25.2986,152.8535,73.04,40.0,0,4,AU,1628046543
bubaque,11.2833,-15.8333,79.38,83.0,100,7.56,GW,1628046544
merauke,-8.4667,140.3333,82.31,69.0,38,13.53,ID,1628046417
guarapari,-20.6667,-40.4975,64.29,89.0,90,9.35,BR,1628046545
geraldton,-28.7667,114.6,57.61,67.0,0,16.11,AU,1628046286
olinda,-8.0089,-34.8553,71.33,94.0,90,4.61,BR,1628046546
port hedland,-20.3167,118.5667,78.85,14.0,59,23.02,AU,1628046546
clyde river,70.4692,-68.5914,37.11,92.0,60,4.23,CA,1628046274
ajdabiya,30.7554,20.2263,86.02,27.0,0,8.14,LY,1628046547
thunder bay,48.4001,-89.3168,67.28,77.0,36,2.84,CA,1628046320
katsina,12.9894,7.6006,74.37,84.0,26,9.26,NG,1628046547
along,28.1667,94.7667,87.71,66.0,97,0.94,IN,1628046433
pitimbu,-7.4706,-34.8086,72.19,87.0,47,11.79,BR,1628046548
labuhan,-6.8844,112.2051,85.08,64.0,8,3.56,ID,1628046470
paidha,2.4167,30.9855,59.22,91.0,26,4.07,UG,1628046548
tasiilaq,65.6145,-37.6368,44.76,86.0,100,2.51,GL,1628046549
moree,-29.4667,149.85,57.02,48.0,19,19.86,AU,1628046549
velikiy ustyug,60.7644,46.3106,61.36,79.0,99,4.27,RU,1628046550
goure,13.9835,10.2704,79.02,64.0,1,9.82,NE,1628046550
celle,52.6226,10.0805,63.16,85.0,75,3.44,DE,1628046551
victor harbor,-35.5667,138.6167,60.46,74.0,45,14.65,AU,1628046551
finnsnes,69.2296,17.9811,47.01,89.0,100,3.58,NO,1628046551
morro bay,35.3658,-120.8499,68.79,85.0,21,3,US,1628046477
chokurdakh,70.6333,147.9167,57.47,31.0,29,13.29,RU,1628046288
diamantino,-14.4086,-56.4461,71.42,41.0,85,4.05,BR,1628046552
kununurra,-15.7667,128.7333,85.98,19.0,98,13.8,AU,1628046553
kupang,-10.1667,123.5833,90.18,40.0,20,18.41,ID,1628046553
kiruna,67.8557,20.2251,45.52,71.0,100,10.36,SE,1628046553
khatanga,71.9667,102.5,76.08,44.0,100,12.66,RU,1628046378
morgan city,29.6994,-91.2068,78.04,100.0,90,3.44,US,1628046554
talagang,32.9297,72.4158,78.64,75.0,85,21.39,PK,1628046554
pevek,69.7008,170.3133,36.64,93.0,100,3.67,RU,1628046554
qui nhon,13.7667,109.2333,85.82,66.0,100,16.4,VN,1628046555
oyama,36.3,139.8,94.89,48.0,88,3.13,JP,1628046555
taicheng,38.731,113.228,77.9,50.0,59,4.56,CN,1628046556
isangel,-19.55,169.2667,75.27,55.0,61,6.33,VU,1628046556
kaeo,-35.1,173.7833,64.33,63.0,86,7.52,NZ,1628046557
xingcheng,40.6167,120.7167,77.23,82.0,100,9.06,CN,1628046557
nipawin,53.3668,-104.0009,66.24,100.0,90,2.3,CA,1628046422
hobyo,5.3505,48.5268,76.96,79.0,82,20.27,SO,1628046558
vardo,70.3705,31.1107,48.4,96.0,100,35.14,NO,1628046305
mount pleasant,32.7941,-79.8626,73.99,97.0,75,1.99,US,1628046336
nakskov,54.8373,11.1284,50.11,74.0,7,7.96,DK,1628046558
longyearbyen,78.2186,15.6401,46.24,71.0,75,21.85,SJ,1628046465
leningradskiy,69.3833,178.4167,40.08,100.0,100,3.53,RU,1628046390
tazovskiy,67.4667,78.7,55.87,95.0,100,5.84,RU,1628046559
hasaki,35.7333,140.8333,95.29,71.0,47,8.75,JP,1628046559
gidole,5.65,37.3667,57.9,64.0,97,4.99,ET,1628046560
maketu,-37.7667,176.45,60.03,59.0,18,10.09,NZ,1628046560
coihaique,-45.5752,-72.0662,37.35,81.0,0,6.91,CL,1628046560
peleduy,59.6289,112.7406,62.83,82.0,100,2.17,RU,1628046561
maputo,-25.9653,32.5892,58.77,86.0,0,7.38,MZ,1628046561
talnakh,69.4865,88.3972,74.61,46.0,0,10.27,RU,1628046562
lorengau,-2.0226,147.2712,83.86,75.0,27,6.71,PG,1628046562
namibe,-15.1961,12.1522,65.68,69.0,0,8.57,AO,1628046368
kavaratti,10.5669,72.642,82.35,75.0,100,15.41,IN,1628046263
neryungri,56.6709,124.6491,69.28,67.0,99,5.93,RU,1628046563
saint-augustin,51.226,-58.6502,58.46,89.0,83,15.12,CA,1628046564
vestmannaeyjar,63.4427,-20.2734,53.98,92.0,100,7.76,IS,1628046407
haines junction,60.7522,-137.5108,69.96,42.0,79,1.77,CA,1628046564
alekseyevsk,57.8406,108.3492,68.09,65.0,73,4.18,RU,1628046564
georgetown,5.4112,100.3354,87.89,75.0,20,1.01,MY,1628046427
prince george,53.9166,-122.753,75.29,48.0,78,4.32,CA,1628046565
lucapa,-8.4192,20.7447,62.92,36.0,0,4.65,AO,1628046565
laguna,38.421,-121.4238,97.3,19.0,1,6.91,US,1628046399
cervo,43.6702,-7.4101,67.19,93.0,100,8.3,ES,1628046566
sibu,2.3,111.8167,90.5,55.0,92,2.64,MY,1628046566
astana,51.1801,71.446,67.95,56.0,0,4.47,KZ,1628046566
greensboro,36.0726,-79.792,68.88,78.0,75,5.75,US,1628046268
hualmay,-11.0964,-77.6139,64.02,83.0,9,10.04,PE,1628046442
lakeside,30.13,-81.7682,77.38,93.0,40,0,US,1628046567
plettenberg bay,-34.0527,23.3716,54.84,73.0,0,5.95,ZA,1628046481
bridlington,54.0831,-0.1919,57.88,90.0,94,9.71,GB,1628046568
kidal,18.4411,1.4078,85.33,48.0,65,6.44,ML,1628046568
waslala,13.2333,-85.3833,71.56,97.0,100,2.39,NI,1628046569
henties bay,-22.116,14.2845,59.86,82.0,0,5.93,NA,1628046512
broome,42.2506,-75.833,62.47,91.0,24,1.36,US,1628046569
sao filipe,14.8961,-24.4956,76.17,92.0,100,7.38,CV,1628046570
angoche,-16.2325,39.9086,66.34,88.0,7,7.2,MZ,1628046570
bagdarin,54.4333,113.6,57.83,90.0,99,1.14,RU,1628046570
novosokolniki,56.3463,30.1578,52.63,93.0,64,4.32,RU,1628046571
cobija,-11.0267,-68.7692,69.22,45.0,10,2.93,BO,1628046571
pandrup,57.2215,9.6757,51.71,87.0,47,6.91,DK,1628046572
kungurtug,50.5994,97.5228,69.91,42.0,1,1.45,RU,1628046572
ambunti,-4.2365,142.8448,90.82,56.0,50,0.72,PG,1628046497
smithers,54.7804,-127.1743,64.96,64.0,99,2.42,CA,1628046474
palmer,42.1584,-72.3287,64.44,84.0,75,0,US,1628046573
rykhtychi,49.3851,23.5566,59.02,74.0,90,3.06,UA,1628046573
mount isa,-20.7333,139.5,65.97,24.0,22,17.27,AU,1628046408
camalu,30.85,-116.0667,75.42,67.0,0,8.39,MX,1628046574
mana,5.6592,-53.7767,76.32,86.0,5,5.75,GF,1628046574
olafsvik,64.8945,-23.7142,53.37,91.0,95,8.32,IS,1628046293
datong,40.0936,113.2914,81.01,34.0,14,9.62,CN,1628046575
atagay,55.1033,99.3875,76.68,52.0,31,2.17,RU,1628046575
praia da vitoria,38.7333,-27.0667,70.75,88.0,13,7.34,PT,1628046575
sunrise manor,36.2111,-115.0731,107.11,14.0,1,0,US,1628046474
boguchany,58.3814,97.4531,75.87,45.0,0,2.55,RU,1628046576
sao joao da barra,-21.6403,-41.0511,64.33,89.0,65,10.56,BR,1628046577
carnarvon,-24.8667,113.6333,69.87,33.0,0,14.97,AU,1628046578
atar,20.5169,-13.0499,87.26,47.0,100,8.14,MR,1628046578
pangody,65.85,74.4859,60.46,78.0,100,7.07,RU,1628046374
suntar,62.1444,117.6319,64.17,90.0,100,5.17,RU,1628046404
oranjemund,-28.55,16.4333,57.18,81.0,1,5.53,NA,1628046579
kayes,14,-11,76.91,82.0,49,1.45,ML,1628046579
innisfail,-17.5333,146.0333,87.87,61.0,9,10.38,AU,1628046580
brae,60.3964,-1.353,55.31,94.0,100,6.51,GB,1628046580
staroye drozhzhanoye,54.7266,47.5677,67.96,88.0,93,6.76,RU,1628046580
luganville,-15.5333,167.1667,76.59,71.0,83,10.54,VU,1628046581
hirara,24.8,125.2833,82.33,84.0,100,20.42,JP,1628046581
asyut,27.181,31.1837,86.65,20.0,1,2.33,EG,1628046582
pallipattu,13.3386,79.4449,87.15,54.0,86,16.49,IN,1628046582
linkoping,58.4109,15.6216,49.98,89.0,90,2.3,SE,1628046583
dukat,62.55,155.55,34.3,99.0,100,6.15,RU,1628046583
visnes,59.3556,5.2242,53.82,87.0,66,4.61,NO,1628046583
antalaha,-14.9003,50.2788,67.77,84.0,15,8.99,MG,1628046584
rocha,-34.4833,-54.3333,46.02,92.0,11,2.04,UY,1628046584
ziezmariai,54.8,24.45,55.49,81.0,77,2.13,LT,1628046584
aneho,6.2333,1.6,76.5,89.0,90,12.21,TG,1628046585
buchanan,5.8808,-10.0467,75.16,82.0,28,3.6,LR,1628046297
boyolangu,-8.1181,111.8935,81.81,74.0,61,9.31,ID,1628046385
boa vista,2.8197,-60.6733,76.98,83.0,90,4.61,BR,1628046586
te anau,-45.4167,167.7167,45.48,68.0,100,0.2,NZ,1628046383
tongliao,43.6125,122.2653,73.78,83.0,100,13.27,CN,1628046586
zhuhai,22.2769,113.5678,90.72,70.0,40,11.5,CN,1628046459
san patricio,28.017,-97.5169,84.83,75.0,83,4.32,US,1628046403
vao,-22.6667,167.4833,68.97,71.0,0,6.71,NC,1628046587
calabozo,8.9242,-67.4293,70.75,96.0,96,2.51,VE,1628046587
arlit,18.7369,7.3853,94.41,22.0,39,8.16,NE,1628046587
sorland,67.667,12.6934,52.34,85.0,100,13.4,NO,1628046588
omsukchan,62.5333,155.8,36.01,100.0,100,5.84,RU,1628046588
qaqortoq,60.7167,-46.0333,45.1,97.0,100,7.87,GL,1628046589
sembakung,3.8167,117.25,84.13,57.0,100,1.48,ID,1628046589
palasa,18.7667,84.4167,87.28,60.0,99,5.73,IN,1628046589
manuk mangkaw,4.8,119.85,84.67,76.0,65,14.88,PH,1628046590
salvador,13.8333,-88.9167,70.2,99.0,100,3.15,SV,1628046447
careiro da varzea,-3.2003,-59.8119,81.21,84.0,72,4.23,BR,1628046590
lavrentiya,65.5833,-171,48.02,96.0,100,5.93,RU,1628046591
ulaangom,49.9811,92.0667,74.95,35.0,6,3.78,MN,1628046591
kenai,60.5544,-151.2583,66.02,76.0,20,16.11,US,1628046591
anchorage,61.2181,-149.9003,70.29,76.0,75,1.01,US,1628046458
belen,36.4891,36.2233,73.54,89.0,0,13.8,TR,1628046592
lata,40.1629,-8.3327,64.35,98.0,94,2.89,PT,1628046592
whitecourt,54.1502,-115.6855,69.51,60.0,13,4.99,CA,1628046436
egvekinot,66.3167,-179.1667,45.25,99.0,100,3.85,RU,1628046593
sabzevar,36.2126,57.6819,81.45,19.0,77,4.88,IR,1628046593
lotofaga,-13.9764,-171.8578,82.18,74.0,66,13.09,WS,1628046594
nome,64.5011,-165.4064,75.11,56.0,1,0,US,1628046594
puerto ayacucho,5.6639,-67.6236,71.35,91.0,99,1.88,VE,1628046594
pahrump,36.2083,-115.9839,103.05,16.0,0,4.74,US,1628046484
pathein,16.7833,94.7333,79.99,87.0,100,10.13,MM,1628046368
stromness,58.965,-3.296,52.05,83.0,100,3,GB,1628046595
port-gentil,-0.7193,8.7815,75.6,85.0,78,14,GA,1628046596
general cepeda,25.3833,-101.45,67.41,71.0,73,7.11,MX,1628046596
gold coast,-28,153.4333,71.19,35.0,0,8.01,AU,1628046421
adre,13.4667,22.2,70.79,79.0,100,7.36,TD,1628046597
tautira,-17.7333,-149.15,80.62,78.0,25,14,PF,1628046597
dingle,10.9995,122.6711,88.63,62.0,100,16.55,PH,1628046597
quatre cocos,-20.2078,57.7625,65.08,73.0,12,10.76,MU,1628046445
ambovombe,-25.1667,46.0833,62.73,77.0,13,16.04,MG,1628046598
saint anthony,45.0205,-93.218,76.93,63.0,1,1.01,US,1628046598
san cristobal,7.7669,-72.225,63.79,98.0,95,4.54,VE,1628046598
thompson,55.7435,-97.8558,75.97,41.0,100,7.18,CA,1628046599
ahipara,-35.1667,173.1667,56.59,64.0,97,5.79,NZ,1628046515
fray bentos,-33.1325,-58.2956,47.73,92.0,66,5.08,UY,1628046599
belmonte,-15.8631,-38.8828,66.7,81.0,28,8.43,BR,1628046599
russkiy,43.0147,131.8642,84.06,96.0,75,9.19,RU,1628046601
bilma,18.6853,12.9164,91.11,35.0,2,11.45,NE,1628046603
berlevag,70.8578,29.0864,48.2,93.0,100,29.39,NO,1628046604
kamiiso,41.8167,140.65,80.82,78.0,100,5.99,JP,1628046604
takoradi,4.8845,-1.7554,75.36,92.0,85,7,GH,1628046605
impfondo,1.6381,18.0667,73.35,74.0,84,1.25,CG,1628046605
shenjiamen,29.9576,122.298,80.96,90.0,88,16.67,CN,1628046606
elko,41.0002,-115.5012,84.22,21.0,45,11.01,US,1628046369
gizo,-8.103,156.8419,81.37,78.0,29,9.6,SB,1628046335
krutinka,56.0055,71.5113,59.92,86.0,32,8.01,RU,1628046606
shulan,44.4167,126.95,76.8,78.0,99,13.85,CN,1628046607
saint-agapit,46.5629,-71.4352,64.38,96.0,24,4.59,CA,1628046608
asau,46.4333,26.4,60.4,93.0,12,2.86,RO,1628046608
altay,47.8667,88.1167,81.03,25.0,77,5.75,CN,1628046451
lakatoro,-16.0999,167.4164,77.18,63.0,79,10.31,VU,1628046609
beyneu,45.3167,55.2,91.26,20.0,10,5.1,KZ,1628046609
wembley,-31.9333,115.8,65.03,60.0,20,2.3,AU,1628046610
boshnyakovo,49.6333,142.1667,61.41,75.0,100,2.17,RU,1628046610
poronaysk,49.2167,143.1167,59.58,78.0,82,11.16,RU,1628046400
novichikha,52.204,81.3877,74.39,43.0,43,6.22,RU,1628046611
luderitz,-26.6481,15.1594,54.91,93.0,40,5.44,NA,1628046611
cayenne,4.9333,-52.3333,81.09,85.0,75,1.01,GF,1628046612
batagay-alyta,67.8006,130.4114,71.35,28.0,4,13.85,RU,1628046612
faanui,-16.4833,-151.75,79.39,73.0,9,8.46,PF,1628046613
karabulak,43.3036,44.8964,66.76,61.0,1,5.77,RU,1628046613
prince rupert,54.3161,-130.3201,60.55,92.0,100,6.11,CA,1628046614
lima,-12.0432,-77.0282,61.05,82.0,90,8.05,PE,1628045820
mandurah,-32.55,115.7,65.14,62.0,37,6.08,AU,1628046551
kizukuri,40.8061,140.3861,89.94,66.0,90,5.08,JP,1628046615
san luis,-33.295,-66.3356,52.72,38.0,48,3.91,AR,1628046615
sapa,5.1544,120.3241,86.4,72.0,54,11.83,PH,1628046615
pedernales,18.0384,-71.744,80.19,76.0,94,4.79,DO,1628046616
urubicha,-15.3833,-62.95,68.7,44.0,100,3.33,BO,1628046616
plesna,50.2207,12.3467,57.51,96.0,100,6.29,CZ,1628046616
naze,28.3667,129.4833,80.11,81.0,86,15.7,JP,1628046351
tolaga bay,-38.3667,178.3,52.61,56.0,56,16.62,NZ,1628046617
kurilsk,45.2333,147.8833,58.82,86.0,99,8.37,RU,1628046618
bechem,7.0903,-2.025,68.74,99.0,96,2.35,GH,1628046618
marjamaa,58.9039,24.4306,49.98,95.0,11,3.74,EE,1628046619
severomuysk,56.1481,113.4267,52.41,76.0,95,4.94,RU,1628046324
salta,-24.7859,-65.4117,53.58,61.0,65,1.99,AR,1628046619
kavieng,-2.5744,150.7967,84,71.0,19,2.8,PG,1628046620
sangar,63.9242,127.4739,74.43,43.0,0,3.38,RU,1628046620
teahupoo,-17.8333,-149.2667,75.16,78.0,7,13.53,PF,1628046620
pacifica,37.6138,-122.4869,78.8,89.0,20,3,US,1628046419
baijiantan,45.6333,85.1833,90.91,11.0,100,2.13,CN,1628046621
pajapan,18.25,-94.7,76.93,89.0,60,5.26,MX,1628046621
colares,38.7992,-9.4469,68.29,80.0,100,10,PT,1628046622
nemuro,43.3236,145.575,66.49,94.0,91,7.18,JP,1628046622
buraydah,26.326,43.975,84.42,14.0,6,7.05,SA,1628046351
kashirskoye,51.4194,39.6125,61.02,74.0,47,6.87,RU,1628046623
takaungu,-3.6837,39.8566,72.97,87.0,73,9.82,KE,1628046623
akonolinga,3.7667,12.25,66.87,99.0,100,2.53,CM,1628046623
bandarbeyla,9.4942,50.8122,79.45,68.0,4,25.88,SO,1628046624
sioux falls,43.55,-96.7003,69.89,80.0,96,8.01,US,1628046573
broken hill,-31.95,141.4333,57.18,52.0,13,17.11,AU,1628046520
dryden,49.7833,-92.7503,71.42,46.0,85,3.06,CA,1628046625
sim,54.993,57.6982,72.3,61.0,64,1.86,RU,1628046625
pallasovka,50.05,46.8833,77.4,37.0,83,5.44,RU,1628046626
tigil,57.8,158.6667,53.69,54.0,100,11.63,RU,1628046626
yunyang,33.4474,112.7142,87.12,63.0,82,6.22,CN,1628046626
tuy hoa,13.0833,109.3,89.28,56.0,100,16.8,VN,1628046627
vila franca do campo,37.7167,-25.4333,72.01,91.0,26,3.53,PT,1628046627
ugoofaaru,5.6667,73,82.22,76.0,100,6.87,MV,1628046627
margate,51.3813,1.3862,55.31,74.0,1,3.78,GB,1628046628
camacha,33.0833,-16.3333,67.53,68.0,40,11.5,PT,1628046628
marawi,7.9986,124.2928,82.65,52.0,75,6.02,PH,1628046628
jinzhou,41.1078,121.1417,75.51,87.0,100,7.23,CN,1628046526
zhigansk,66.7697,123.3711,71.87,36.0,0,11.79,RU,1628046629
verkhnyaya inta,65.9811,60.3094,68.99,62.0,69,7.49,RU,1628046629
nortelandia,-14.4547,-56.8028,69.75,45.0,91,1.77,BR,1628046630
chitapur,17.1167,77.0833,78.89,71.0,69,17.34,IN,1628046630
saint-joseph,-21.3667,55.6167,64.78,86.0,97,17.96,RE,1628046630
bonavista,48.6499,-53.1147,62.11,83.0,30,17.27,CA,1628046631
gushikawa,26.3544,127.8686,87.03,89.0,75,26.46,JP,1628046631
hami,42.8,93.45,88.83,13.0,60,2.51,CN,1628046632
cheremukhovo,60.3484,59.9851,65.59,84.0,80,3.76,RU,1628046632
chernyanka,50.9409,37.8069,61.11,80.0,2,3.09,RU,1628046632
mizque,-17.941,-65.3402,51.8,80.0,90,3.29,BO,1628046633
pangkalanbuun,-2.6833,111.6167,88.61,56.0,82,5.44,ID,1628046633
barra,-11.0894,-43.1417,71.29,53.0,35,7.81,BR,1628046633
pueblo nuevo,23.3833,-105.3833,57.07,96.0,99,3.49,MX,1628046634
dunedin,-45.8742,170.5036,48.79,47.0,78,14,NZ,1628046292
shar,49.5886,81.0453,76.62,41.0,70,5.06,KZ,1628046634
secu,44.4667,23.3,68.29,58.0,12,4.97,RO,1628046634
adrar,20.5022,-10.0711,87.04,41.0,5,10.49,MR,1628046440
concordia,-31.393,-58.0209,50.23,74.0,100,5.79,AR,1628046635
souillac,-20.5167,57.5167,66.36,76.0,20,10.25,MU,1628046635
port augusta,-32.5,137.7667,62.74,50.0,28,10.65,AU,1628046635
avera,33.194,-82.5271,75.07,78.0,35,5.64,US,1628046636
caravelas,-17.7125,-39.2481,68.14,84.0,67,5.17,BR,1628046636
baherden,38.4362,57.4316,91.51,20.0,3,7.92,TM,1628046637
jiaozuo,35.2397,113.2331,88.34,57.0,100,5.53,CN,1628046637
narsaq,60.9167,-46.05,44.82,97.0,100,3.42,GL,1628046638
beaufort,5.3473,115.7455,90.1,53.0,98,3.51,MY,1628046638
juba,4.8517,31.5825,67.68,96.0,50,2.77,SS,1628046638
guasdualito,7.2424,-70.7324,71.85,93.0,100,2.37,VE,1628046638
siero,43.3833,-5.6667,64.83,94.0,100,2.42,ES,1628046639
kerchevskiy,59.946,56.2884,65.1,96.0,86,5.08,RU,1628046640
mamallapuram,12.6264,80.1722,89.65,57.0,100,16.87,IN,1628046640
kruisfontein,-34.0033,24.7314,48.88,84.0,1,7.11,ZA,1628046384
srivardhan,18.0333,73.0167,80.31,84.0,99,12.8,IN,1628046640
sorong,-0.8833,131.25,82.09,78.0,61,3.89,ID,1628046641
nexo,55.0607,15.1306,51.89,67.0,100,6.26,DK,1628046641
banda aceh,5.5577,95.3222,85.32,63.0,100,13.51,ID,1628046641
darab,28.7519,54.5444,87.51,32.0,0,2.77,IR,1628046642
strezhevoy,60.7333,77.5889,60.78,84.0,63,4.45,RU,1628046642
shimoda,34.6667,138.95,89.1,74.0,20,5.79,JP,1628046642
los llanos de aridane,28.6585,-17.9182,67.75,85.0,90,16.11,ES,1628046435
sobolevo,54.4299,31.8996,52.59,91.0,9,3.76,RU,1628046422
bolshaya glushitsa,50.2406,43.5908,68.63,84.0,100,5.48,RU,1628046643
pokrovsk,48.282,37.1758,62.8,84.0,61,5.88,UA,1628046643
two hills,53.7169,-111.7518,71.01,62.0,4,7.45,CA,1628046644
ulagan,50.6321,87.9563,70.02,53.0,90,0.22,RU,1628046644
hulyaypole,47.6653,36.2578,64.38,72.0,100,5.86,UA,1628046644
muros,42.7762,-9.0603,67.98,95.0,89,3.74,ES,1628046645
balgazyn,51,95.2,75.63,36.0,24,1.95,RU,1628046645
kharan,28.5833,65.4167,87.1,12.0,2,5.84,PK,1628046646
saint-pierre,-21.3393,55.4781,65.88,90.0,75,18.41,RE,1628046646
ongandjera,-17.8833,15.0667,55.02,65.0,0,8.9,NA,1628046648
baykit,61.67,96.37,76.1,52.0,92,4.43,RU,1628046404
makat,47.6469,53.3463,90.3,20.0,26,4.88,KZ,1628046649
tura,25.5198,90.2201,79.47,85.0,100,4.16,IN,1628046649
matagami,49.7502,-77.6328,46.45,85.0,33,3.65,CA,1628046649
ulan-ude,51.8261,107.6098,66.09,72.0,75,2.24,RU,1628046650
kinablangan,7.6947,126.5503,86.88,68.0,100,7.94,PH,1628046650
puerto maldonado,-12.6,-69.1833,67.69,51.0,39,1.83,PE,1628046650
bosansko grahovo,44.1794,16.3639,62.64,66.0,64,4.16,BA,1628046651
manitouwadge,49.1215,-85.8403,58.91,77.0,30,3.31,CA,1628046651
nuuk,64.1835,-51.7216,47.01,93.0,90,10.36,GL,1628046652
san francisco,37.7749,-122.4194,79.3,86.0,20,10,US,1628046635
maningrida,-12.0667,134.2667,88.81,39.0,87,12.62,AU,1628046378
tuatapere,-46.1333,167.6833,46.81,61.0,100,2.77,NZ,1628046495
upata,8.0086,-62.3989,70.2,99.0,100,2.59,VE,1628046653
oktyabrskoye,43.0645,44.7417,69.57,65.0,5,5.79,RU,1628046653
columbus,39.9612,-82.9988,69.71,72.0,1,4.61,US,1628046564
mehran,33.1222,46.1646,87.28,14.0,6,4.81,IR,1628046653
oriental,19.3667,-97.6167,57.27,88.0,79,5.7,MX,1628046654
katsuura,35.1333,140.3,91.51,68.0,5,5.93,JP,1628046654
wau,7.7029,27.9953,67.5,95.0,93,2.8,SS,1628046654
mudon,16.2578,97.7164,80.87,85.0,100,7.87,MM,1628046655
maceio,-9.6658,-35.7353,71.04,100.0,90,5.75,BR,1628046511
krasnoselkup,65.7,82.4667,67.39,72.0,15,7.23,RU,1628046507
capelinha,-17.6914,-42.5158,54.46,80.0,94,2.86,BR,1628046655
kalmunai,7.4167,81.8167,84.65,61.0,97,3.85,LK,1628046656
zambezi,-13.5432,23.1047,50.14,50.0,0,4.29,ZM,1628046656
xuddur,4.1213,43.8894,69.48,83.0,98,16.31,SO,1628046657
jaragua do sul,-26.4861,-49.0667,57.88,98.0,46,1.3,BR,1628046640
baie-saint-paul,47.4411,-70.4986,62.98,89.0,22,4,CA,1628046657
kutum,14.2,24.6667,70.7,77.0,54,10.02,SD,1628046657
salinopolis,-0.6136,-47.3561,78.33,79.0,60,3.78,BR,1628046658
fort nelson,58.8053,-122.7002,70.38,69.0,74,9.62,CA,1628046658
chhindwara,22.0667,78.9333,75.15,82.0,89,16.06,IN,1628046429
la ronge,55.1001,-105.2842,60.85,96.0,100,3.53,CA,1628046658
novikovo,51.1537,37.8879,61.43,78.0,2,3.6,RU,1628046659
sorbhog,26.5,90.8667,84.31,78.0,100,0.56,IN,1628046659
le vauclin,14.5452,-60.8388,79.84,83.0,20,4.61,MQ,1628046659
jaque,7.5175,-78.1703,78.44,87.0,100,2.75,PA,1628046660
oistins,13.0667,-59.5333,80.69,78.0,40,11.5,BB,1628046660
fortuna,40.5982,-124.1573,57.85,73.0,90,3,US,1628046660
rio esteban,15.8333,-86.3,82,88.0,63,7.49,HN,1628046661
high rock,26.6208,-78.2833,83.19,70.0,100,7.81,BS,1628046661
whitehorse,60.7161,-135.0538,71.02,40.0,72,8.99,CA,1628046661
codrington,-38.2667,141.9667,55.36,86.0,88,18.52,AU,1628046661
watertown,42.3709,-71.1828,70,83.0,1,5.01,US,1628046551
balagunan,7.4922,125.5211,89.38,56.0,100,4.38,PH,1628046663
blue springs,39.0169,-94.2816,71.85,80.0,1,0,US,1628046663
tutoia,-2.7619,-42.2744,77.25,82.0,10,5.14,BR,1628046663
kabare,-2.4683,28.8242,59.76,76.0,94,0.36,CD,1628046664
belyy yar,53.6039,91.3903,69.69,73.0,0,2.24,RU,1628046381
lodja,-3.4833,23.4333,67.89,48.0,2,1.52,CD,1628046665
hillside,40.7012,-74.2301,71.98,72.0,1,0,US,1628046665
nizhnevartovsk,60.9344,76.5531,60.82,100.0,0,4.47,RU,1628046666
aswan,24.0934,32.907,88.81,16.0,33,4.9,EG,1628046666
lasa,46.6166,10.7002,57.02,94.0,100,2.64,IT,1628046386
kawambwa,-9.7915,29.0791,55.53,54.0,0,6.51,ZM,1628046666
makasar,-5.14,119.4221,89.65,40.0,20,6.91,ID,1628046665
edson,53.5835,-116.4356,68.59,61.0,89,3.87,CA,1628046667
alyangula,-13.8483,136.4192,79.25,55.0,43,18.63,AU,1628046668
inndyr,67.0338,14.0276,50.65,84.0,99,8.01,NO,1628046668
dickinson,29.4608,-95.0513,84.27,87.0,90,3.44,US,1628046668
havelock,34.8791,-76.9013,72.93,97.0,100,7,US,1628046669
saint george,37.1041,-113.5841,99.25,14.0,1,4,US,1628046669
cidreira,-30.1811,-50.2056,57.76,89.0,100,1.95,BR,1628046416
lianran,24.9227,102.485,76.03,54.0,0,4.25,CN,1628046670
muyezerskiy,63.9333,31.65,46.11,93.0,100,17,RU,1628046670
buluang,13.3068,123.3425,87.67,68.0,100,13.96,PH,1628046670
biak,-0.9131,122.8766,80.6,71.0,98,10.54,ID,1628046671
itarantim,-15.6597,-40.0656,64.94,84.0,100,2.84,BR,1628046671
matara,5.9485,80.5353,81.19,79.0,100,11.56,LK,1628046447
dwarka,22.2394,68.9678,81.97,81.0,100,21.9,IN,1628046672
burnie,-41.0667,145.9167,52.93,69.0,64,12.3,AU,1628046672
sur,22.5667,59.5289,87.39,65.0,26,4.92,OM,1628046673
yekimovichi,54.1129,33.2965,53.33,88.0,9,4.36,RU,1628046673
camopi,3.1655,-52.3158,71.51,97.0,69,1.77,GF,1628046673
homa bay,-0.5273,34.4571,66.24,70.0,99,3.2,KE,1628046674
kemin,42.7846,75.6892,81.45,25.0,2,2.84,KG,1628046674
thakurganj,26.45,88.1333,83.64,82.0,100,11.43,IN,1628046675
algeciras,36.1333,-5.4505,69.57,88.0,99,1.61,ES,1628046675
yar-sale,66.8333,70.8333,65.61,65.0,80,11.18,RU,1628046415
rio grande,-32.035,-52.0986,51.94,92.0,9,1.19,BR,1628046468
pudozh,61.8099,36.5345,53.94,85.0,100,12.1,RU,1628046676
qeshm,26.9581,56.2719,91.27,75.0,2,5.97,IR,1628046676
jati,24.3539,68.2671,82.96,69.0,100,22.44,PK,1628046677
nelson bay,-32.7167,152.15,60.85,46.0,6,5.01,AU,1628046677
krasnogorsk,55.8225,37.3181,59.97,82.0,0,4.47,RU,1628046677
tahe,52.3333,124.7333,66.72,78.0,100,2.24,CN,1628046678
gigmoto,13.7796,124.39,87.21,68.0,100,16.06,PH,1628046678
puerto escondido,15.85,-97.0667,83.23,69.0,90,0,MX,1628046391
yerbogachen,61.2767,108.0108,75.97,45.0,70,8.95,RU,1628046679
sarangani,5.4033,125.4636,84.63,70.0,100,10.71,PH,1628046679
peace river,56.2501,-117.286,74.91,45.0,39,8.7,CA,1628046679
lantana,26.5867,-80.052,75.24,94.0,75,8.05,US,1628046680
rondonopolis,-16.4708,-54.6356,71.78,38.0,68,3.18,BR,1628046680
ozark,37.0209,-93.206,72.01,88.0,97,4.79,US,1628046680
aleksandrov gay,50.147,48.5704,87.31,15.0,78,6.64,RU,1628046681
teya,60.3778,92.6267,70.61,54.0,96,1.59,RU,1628046681
bosaso,11.2842,49.1816,88.23,41.0,61,23.15,SO,1628046681
lichtenburg,-26.152,26.1597,45.5,71.0,0,9.51,ZA,1628046682
mahon,39.8885,4.2658,70.36,88.0,0,5.75,ES,1628046682
santa rosa,14.3122,121.1114,89.1,67.0,100,17.34,PH,1628046682
darhan,49.4867,105.9228,67.51,61.0,91,4.47,MN,1628046683
talalayivka,50.9578,31.9209,59.56,67.0,14,2.39,UA,1628046683
sakaiminato,35.55,133.2333,94.93,64.0,67,7.99,JP,1628046683
huarmey,-10.0681,-78.1522,64.71,86.0,1,9.35,PE,1628046684
wagar,16.1525,36.2032,76.3,74.0,81,9.98,SD,1628046684
lodwar,3.1191,35.5973,77.38,50.0,18,17.92,KE,1628046684
tiznit,29.5833,-9.5,63.81,84.0,55,1.3,MA,1628046685
